ms_today;input_voltage;temp_mos_max;temp_mos_1;temp_mos_2;temp_mos_3;temp_motor;current_motor;current_in;d_axis_current;q_axis_current;erpm;duty_cycle;amp_hours_used;amp_hours_charged;watt_hours_used;watt_hours_charged;tachometer;tachometer_abs;encoder_position;fault_code;vesc_id;d_axis_voltage;q_axis_voltage;ms_today_setup;amp_hours_setup;amp_hours_charged_setup;watt_hours_setup;watt_hours_charged_setup;battery_level;battery_wh_tot;current_in_setup;current_motor_setup;speed_meters_per_sec;tacho_meters;tacho_abs_meters;num_vescs;ms_today_imu;roll;pitch;yaw;accX;accY;accZ;gyroX;gyroY;gyroZ;gnss_posTime;gnss_lat;gnss_lon;gnss_alt;gnss_gVel;gnss_vVel;gnss_hAcc;gnss_vAcc;
23531223;49.1;51.2;0;0;0;-75;0;0;0;0;0;0;1.0507;0.1279;51.1367;6.3602;626663;634583;151.111;0;61;0;-0.006;23527430;1.0507;0.1279;51.1367;6.3602;0.917;436.24;0;0;0;3214.5;3255.12;1;23527431;0.0891299;0.338068;0.127721;-0.328372;-0.0909282;0.934052;0.503024;-0.235502;-0.0126788;23530999;-37.71096794;145.03608510;83.34905620;0.00000000;0.00000000;4.74623349;3.36122071;
23531315;49.1;51.1;0;0;0;-74.8;0;0;0;0;0;0;1.0507;0.1279;51.1367;6.3602;626663;634583;151.111;0;61;0;-0.006;23531224;1.0507;0.1279;51.1367;6.3602;0.918;436.707;0;0;0;3214.5;3255.12;1;23531226;0.0901079;0.338607;0.125083;-0.334394;-0.0904513;0.933812;0.557043;-0.113936;0.172949;23530999;-37.71096794;145.03608510;83.34905620;0.00000000;0.00000000;4.74623349;3.36122071;
23531376;49.1;51.1;0;0;0;-74;0;0;0;0;0;0;1.0507;0.1279;51.1367;6.3602;626663;634583;151.109;0;61;0;-0.006;23531316;1.0507;0.1279;51.1367;6.3602;0.918;436.717;0;0;0;3214.5;3255.12;1;23531316;0.0905724;0.338563;0.125237;-0.331318;-0.0923941;0.933925;0.383366;-0.235323;-0.0783172;23530999;-37.71096794;145.03608510;83.34905620;0.00000000;0.00000000;4.74623349;3.36122071;
23531435;49.1;51.1;0;0;0;-74.5;0;0;0;0;0;0;1.0507;0.1279;51.1367;6.3602;626663;634583;151.115;0;61;0;-0.006;23531376;1.0507;0.1279;51.1367;6.3602;0.918;436.724;0;0;0;3214.5;3255.12;1;23531377;0.0911523;0.33828;0.125426;-0.327642;-0.0953055;0.934097;0.0150968;-0.296486;-0.0314358;23530999;-37.71096794;145.03608510;83.34905620;0.00000000;0.00000000;4.74623349;3.36122071;
23531525;49.1;51.1;0;0;0;-74.5;0;0;0;0;0;0;1.0507;0.1279;51.1367;6.3602;626663;634583;151.113;0;61;0;-0.006;23531435;1.0507;0.1279;51.1367;6.3602;0.918;436.732;0;0;0;3214.5;3255.12;1;23531436;0.0915443;0.337978;0.125563;-0.329668;-0.0899395;0.934074;0.85735;0.12984;0.307215;23530999;-37.71096794;145.03608510;83.34905620;0.00000000;0.00000000;4.74623349;3.36122071;
23531615;49.1;51.1;0;0;0;-74.1;0;0;0;0;0;0;1.0507;0.1279;51.1367;6.3602;626663;634583;151.111;0;61;0;-0.006;23531525;1.0507;0.1279;51.1367;6.3602;0.918;436.742;0;0;0;3214.5;3255.12;1;23531526;0.09114;0.338274;0.125337;-0.32978;-0.0987365;0.933987;0.557043;-0.297041;0.172451;23530999;-37.71096794;145.03608510;83.34905620;0.00000000;0.00000000;4.74623349;3.36122071;
23531673;49.2;51.1;0;0;0;-74.3;0;0;0;0;0;0;1.0507;0.1279;51.1367;6.3602;626663;634583;151.111;0;61;0;-0.006;23531615;1.0507;0.1279;51.1367;6.3602;0.918;436.746;0;0;0;3214.5;3255.12;1;23531616;0.0917532;0.337864;0.125523;-0.325876;-0.0948307;0.934151;0.855026;-0.0534312;0.367707;23530999;-37.71096794;145.03608510;83.34905620;0.00000000;0.00000000;4.74623349;3.36122071;
23531764;49.1;51.1;0;0;0;-73.8;0;0;0;0;0;0;1.0507;0.1279;51.1367;6.3602;626663;634583;151.111;0;61;0;-0.006;23531674;1.0507;0.1279;51.1367;6.3602;0.918;436.755;0;0;0;3214.5;3255.12;1;23531677;0.092022;0.337718;0.125574;-0.323683;-0.0918839;0.934197;0.435062;-0.113924;0.168302;23530999;-37.71096794;145.03608510;83.34905620;0.00000000;0.00000000;4.74623349;3.36122071;
23531853;49.1;51.1;0;0;0;-74.1;0;0;0;0;0;0;1.0507;0.1279;51.1367;6.3602;626663;634583;151.111;0;61;0;-0.006;23531765;1.0507;0.1279;51.1367;6.3602;0.918;436.76;0;0;0;3214.5;3255.12;1;23531766;0.0921941;0.337663;0.125538;-0.329687;-0.0928705;0.934224;0.435062;0.00814623;0.168634;23530999;-37.71096794;145.03608510;83.34905620;0.00000000;0.00000000;4.74623349;3.36122071;
23531914;49.2;51.1;0;0;0;-74.6;0;0;0;0;0;0;1.0507;0.1279;51.1367;6.3602;626663;634583;151.119;0;61;0;-0.006;23531854;1.0507;0.1279;51.1367;6.3602;0.918;436.76;0;0;0;3214.5;3255.12;1;23531855;0.0925628;0.337294;0.125679;-0.326216;-0.0997028;0.934432;0.735368;0.129852;0.302567;23530999;-37.71096794;145.03608510;83.34905620;0.00000000;0.00000000;4.74623349;3.36122071;
23531975;49.2;51.1;0;0;0;-74.3;0;0;0;0;0;0;1.0507;0.1279;51.1367;6.3602;626663;634583;151.113;0;61;0;-0.006;23531945;1.0507;0.1279;51.1367;6.3602;0.918;436.765;0;0;0;3214.5;3255.12;1;23531946;0.0926657;0.337286;0.125659;-0.327452;-0.0909323;0.934485;0.5007;-0.418773;0.0478133;23530999;-37.71096794;145.03608510;83.34905620;0.00000000;0.00000000;4.74623349;3.36122071;
23532096;49.2;51;0;0;0;-74.3;0;0;0;0;0;0;1.0507;0.1279;51.1367;6.3602;626663;634583;151.117;0;61;0;-0.006;23532064;1.0507;0.1279;51.1367;6.3602;0.918;436.769;0;0;0;3214.5;3255.12;1;23532065;0.0937822;0.336731;0.12595;-0.326178;-0.088958;0.934388;0.256737;0.0084973;0.0396812;23531999;-37.71096578;145.03608929;83.39037154;0.00000000;0.00000000;4.74444836;3.36374000;
23532186;49.2;51.1;0;0;0;-74.6;0;0;0;0;0;0;1.0507;0.1279;51.1367;6.3602;626663;634583;151.121;0;61;0;-0.006;23532154;1.0507;0.1279;51.1367;6.3602;0.918;436.774;0;0;0;3214.5;3255.12;1;23532155;0.0941046;0.336516;0.126044;-0.330509;-0.0924061;0.934162;0.679025;0.0691559;0.178096;23531999;-37.71096578;145.03608929;83.39037154;0.00000000;0.00000000;4.74444836;3.36374000;
23532273;49.2;51.1;0;0;0;-75.5;0;0;0;0;0;0;1.0507;0.1279;51.1367;6.3602;626663;634583;151.113;0;61;0;-0.006;23532215;1.0507;0.1279;51.1367;6.3602;0.918;436.773;0;0;0;3214.5;3255.12;1;23532216;0.0940914;0.33664;0.125945;-0.32721;-0.0899384;0.934107;0.611063;0.00762904;0.358578;23531999;-37.71096578;145.03608929;83.39037154;0.00000000;0.00000000;4.74444836;3.36374000;
23532365;49.1;51;0;0;0;-75.4;0;0;0;0;0;0;1.0507;0.1279;51.1367;6.3602;626663;634583;151.123;0;61;0;-0.005;23532274;1.0507;0.1279;51.1367;6.3602;0.918;436.783;0;0;0;3214.5;3255.12;1;23532275;0.0948533;0.336444;0.126068;-0.33096;-0.0982628;0.93437;-0.822509;-0.966619;-0.492732;23531999;-37.71096578;145.03608929;83.39037154;0.00000000;0.00000000;4.74444836;3.36374000;
23532425;49.1;51;0;0;0;-76.5;0;0;0;0;0;0;1.0507;0.1279;51.1367;6.3602;626663;634583;151.125;0;61;0;-0.004;23532366;1.0507;0.1279;51.1367;6.3602;0.918;436.786;0;0;0;3214.5;3255.12;1;23532367;0.0996951;0.334122;0.127787;-0.322424;-0.0997112;0.935213;-2.32637;-1.57532;-1.10141;23531999;-37.71096578;145.03608929;83.39037154;0.00000000;0.00000000;4.74444836;3.36374000;
23532515;49.2;51;0;0;0;-75.7;0;0;0;0;0;0;1.0507;0.1279;51.1367;6.3602;626663;634583;151.143;0;61;0;-0.003;23532425;1.0507;0.1279;51.1367;6.3602;0.918;436.8;0;0;0;3214.5;3255.12;1;23532426;0.103288;0.332343;0.129089;-0.330114;-0.102667;0.935669;-3.10995;-2.18492;-1.37724;23531999;-37.71096578;145.03608929;83.39037154;0.00000000;0.00000000;4.74444836;3.36374000;
23532573;49.1;51;0;0;0;-76.2;0;0;0;0;0;0;1.0507;0.1279;51.1367;6.3602;626663;634583;151.179;0;61;0;0.007;23532515;1.0507;0.1279;51.1367;6.3602;0.918;436.809;0;0;0;3214.5;3255.12;1;23532516;0.11749;0.326523;0.134153;-0.332949;-0.112425;0.938348;-11.0591;-5.89558;-5.9658;23531999;-37.71096578;145.03608929;83.39037154;0.00000000;0.00000000;4.74444836;3.36374000;
23532667;49.2;51;0;0;0;-75.2;0;0;0;0;0;0;1.0507;0.1279;51.1367;6.3602;626663;634583;151.225;0;61;-0.001;0.001;23532574;1.0507;0.1279;51.1367;6.3602;0.918;436.819;0;0;0;3214.5;3255.12;1;23532575;0.134134;0.319168;0.140835;-0.31675;-0.129056;0.941054;-14.0221;-6.62587;-6.75256;23531999;-37.71096578;145.03608929;83.39037154;0.00000000;0.00000000;4.74444836;3.36374000;
23532860;49.2;51;0;0;0;-74.9;0.13;0;-0.08;-0.12;-10;0;1.0507;0.1279;51.1367;6.3602;626664;634590;151.409;0;61;-0.023;-0.009;23532667;1.0507;0.1279;51.1367;6.3602;0.918;436.828;0;0;0;3214.5;3255.12;1;23532668;0.155422;0.307834;0.149176;-0.289305;-0.198805;0.941827;-5.54319;-3.1564;-3.24391;23531999;-37.71096578;145.03608929;83.39037154;0.00000000;0.00000000;4.74444836;3.36374000;
23533002;49.2;51;0;0;0;-73.2;-0.25;0;-0.2;0.07;0;0;1.0507;0.1279;51.1367;6.3602;626664;634590;151.433;0;61;-0.058;-0.051;23532862;1.0507;0.1279;51.1367;6.3602;0.918;436.855;0;0.34;-0.005;3214.5;3255.16;1;23532862;0.154526;0.309497;0.156509;-0.264118;-0.155573;0.930704;22.8977;7.94601;-1.03059;23531999;-37.71096578;145.03608929;83.39037154;0.00000000;0.00000000;4.74444836;3.36374000;
23533085;49.2;51;0;0;0;-74.1;-0.29;0;-0.33;0.06;0;0;1.0507;0.1279;51.1367;6.3602;626664;634590;151.445;0;61;-0.055;-0.057;23533002;1.0507;0.1279;51.1367;6.3602;0.918;436.94;0;-0.37;0;3214.5;3255.16;1;23533004;0.0747784;0.342586;0.130948;-0.343079;-0.0611815;0.927609;5.08953;0.00467008;1.4454;23532999;-37.71096545;145.03608832;83.29730598;0.00000000;0.00000000;4.74435324;3.36387416;
23533174;49.2;51;0;0;0;-74.7;-0.3;0;-0.3;0.11;0;0;1.0507;0.1279;51.1367;6.3602;626664;634590;151.423;0;61;-0.055;-0.061;23533086;1.0507;0.1279;51.1367;6.3602;0.919;437.02;0;-0.34;0;3214.5;3255.16;1;23533116;0.0856676;0.336224;0.135916;-0.306847;-0.106063;0.938449;-2.2584;-1.51379;-1.28189;23532999;-37.71096545;145.03608832;83.29730598;0.00000000;0.00000000;4.74435324;3.36387416;
23533266;49.2;51;0;0;0;-74.3;-0.35;0;-0.31;0.13;0;0;1.0507;0.1279;51.1367;6.3602;626664;634590;151.387;0;61;-0.053;-0.063;23533175;1.0507;0.1279;51.1367;6.3602;0.919;437.067;0;-0.31;0;3214.5;3255.16;1;23533176;0.0801513;0.338953;0.133211;-0.308669;-0.0728506;0.937063;9.12015;3.41822;3.07418;23532999;-37.71096545;145.03608832;83.29730598;0.00000000;0.00000000;4.74435324;3.36387416;
23533325;49.2;51;0;0;0;-75;-0.32;0;-0.33;0.07;0;0;1.0507;0.1279;51.1367;6.3602;626664;634590;151.381;0;61;-0.051;-0.062;23533266;1.0507;0.1279;51.1367;6.3602;0.919;437.107;0;-0.3;0;3214.5;3255.16;1;23533267;0.0687198;0.344919;0.128462;-0.345802;-0.0699556;0.936552;4.32511;1.04001;2.27421;23532999;-37.71096545;145.03608832;83.29730598;0.00000000;0.00000000;4.74435324;3.36387416;
23533415;49.2;51;0;0;0;-75.9;-0.28;0;-0.33;0.06;0;0;1.0507;0.1279;51.1367;6.3602;626664;634590;151.387;0;61;-0.051;-0.062;23533325;1.0507;0.1279;51.1367;6.3602;0.919;437.138;0;-0.33;0;3214.5;3255.16;1;23533326;0.0677102;0.345436;0.128155;-0.345881;-0.0699264;0.936704;-0.81089;0.13284;-0.794694;23532999;-37.71096545;145.03608832;83.29730598;0.00000000;0.00000000;4.74435324;3.36387416;
23533475;49.2;51;0;0;0;-75.5;-0.27;0;-0.33;0.06;0;0;1.0507;0.1279;51.1367;6.3602;626664;634590;151.389;0;61;-0.05;-0.063;23533416;1.0507;0.1279;51.1367;6.3602;0.919;437.182;0;-0.21;0;3214.5;3255.16;1;23533417;0.0687432;0.345028;0.128509;-0.336216;-0.0689575;0.93652;1.3993;0.373424;0.511766;23532999;-37.71096545;145.03608832;83.29730598;0.00000000;0.00000000;4.74435324;3.36387416;
23533566;49.2;51;0;0;0;-75.5;-0.3;0;-0.33;0.06;0;0;1.0507;0.1279;51.1367;6.3602;626664;634590;151.387;0;61;-0.051;-0.062;23533475;1.0507;0.1279;51.1367;6.3602;0.919;437.205;0;-0.27;0;3214.5;3255.16;1;23533476;0.0689503;0.34466;0.128599;-0.333627;-0.066994;0.936056;-0.346201;-0.174046;-0.167028;23532999;-37.71096545;145.03608832;83.29730598;0.00000000;0.00000000;4.74435324;3.36387416;
23533625;49.2;51;0;0;0;-76.1;-0.28;0;-0.33;0.06;0;0;1.0507;0.1279;51.1367;6.3602;626664;634590;151.385;0;61;-0.051;-0.063;23533567;1.0507;0.1279;51.1367;6.3602;0.919;437.247;0;-0.29;0;3214.5;3255.16;1;23533568;0.0696363;0.344475;0.128711;-0.332577;-0.0723598;0.935144;0.721425;0.189891;0.668677;23532999;-37.71096545;145.03608832;83.29730598;0.00000000;0.00000000;4.74435324;3.36387416;
23533715;49.2;51;0;0;0;-75.6;-0.24;0;-0.34;0.05;0;0;1.0507;0.1279;51.1367;6.3602;626664;634590;151.389;0;61;-0.051;-0.062;23533626;1.0507;0.1279;51.1367;6.3602;0.919;437.269;0;-0.36;0;3214.5;3255.16;1;23533628;0.0703537;0.344359;0.128961;-0.338335;-0.0665278;0.934574;-1.06415;-0.783323;-0.56252;23532999;-37.71096545;145.03608832;83.29730598;0.00000000;0.00000000;4.74435324;3.36387416;
23533774;49.2;51;0;0;0;-75.5;-0.23;0;-0.33;0.04;0;0;1.0507;0.1279;51.1367;6.3602;626664;634590;151.393;0;61;-0.051;-0.061;23533715;1.0507;0.1279;51.1367;6.3602;0.919;437.315;0;0.42;0;3214.5;3255.16;1;23533716;0.0748435;0.342795;0.130511;-0.350584;-0.073401;0.934349;-5.46768;-3.03767;-2.01911;23532999;-37.71096545;145.03608832;83.29730598;0.00000000;0.00000000;4.74435324;3.36387416;
23533866;49.2;51;0;0;0;-75.4;-0.1;0;-0.33;0.01;0;0;1.0507;0.1279;51.1367;6.3602;626664;634590;151.421;0;61;-0.052;-0.059;23533775;1.0507;0.1279;51.1367;6.3602;0.919;437.348;0;-0.37;0;3214.5;3255.16;1;23533776;0.0879349;0.337484;0.135033;-0.337243;-0.0899919;0.936678;-15.7321;-8.15173;-6.76079;23532999;-37.71096545;145.03608832;83.29730598;0.00000000;0.00000000;4.74435324;3.36387416;
23533925;49.2;51;0;0;0;-75.3;-0.11;0;-0.31;0.02;0;0;1.0507;0.1279;51.1367;6.3602;626664;634590;151.443;0;61;-0.055;-0.055;23533866;1.0507;0.1279;51.1367;6.3602;0.919;437.392;0;0.2;0;3214.5;3255.16;1;23533867;0.117418;0.323381;0.145884;-0.296614;-0.142581;0.940421;-11.2444;-6.26194;-5.91277;23532999;-37.71096545;145.03608832;83.29730598;0.00000000;0.00000000;4.74435324;3.36387416;
23534015;49.2;51;0;0;0;-74.6;-0.16;0;-0.31;0.03;0;0;1.0507;0.1279;51.1367;6.3602;626664;634590;151.481;0;61;-0.056;-0.054;23533926;1.0507;0.1279;51.1367;6.3602;0.919;437.417;0;-0.34;0;3214.5;3255.16;1;23533926;0.126196;0.316886;0.149855;-0.283622;-0.137748;0.938713;-4.45872;-2.49045;-1.24622;23532999;-37.71096545;145.03608832;83.29730598;0.00000000;0.00000000;4.74435324;3.36387416;
23534073;49.2;51;0;0;0;-74.7;-0.18;0;-0.31;0.05;0;0;1.0507;0.1279;51.1367;6.3602;626664;634590;151.497;0;61;-0.059;-0.051;23534016;1.0507;0.1279;51.1367;6.3602;0.919;437.446;0;0.22;0;3214.5;3255.16;1;23534016;0.125849;0.316073;0.150274;-0.283269;-0.116238;0.93279;6.42436;2.68957;1.68681;23533999;-37.71096761;145.03608619;83.31329884;0.00000000;0.00000000;4.74550624;3.36224740;
23534166;49.2;51;0;0;0;-75.7;-0.27;0;-0.14;0.2;0;0;1.0507;0.1279;51.1367;6.3602;626664;634590;151.367;0;61;-0.058;-0.075;23534074;1.0507;0.1279;51.1367;6.3602;0.919;437.47;0;-0.35;0;3214.5;3255.16;1;23534075;0.110036;0.320344;0.145949;-0.24837;-0.102029;0.926961;19.3288;10.2983;9.28445;23533999;-37.71096761;145.03608619;83.31329884;0.00000000;0.00000000;4.74550624;3.36224740;
23534225;49.2;51;0;0;0;-75;-0.28;0;-0.28;0.11;0;0;1.0507;0.1279;51.1367;6.3602;626663;634663;151.337;0;61;-0.047;-0.071;23534166;1.0507;0.1279;51.1367;6.3602;0.92;437.496;0;-0.23;0;3214.5;3255.16;1;23534167;0.0690097;0.343342;0.128601;-0.407389;-0.0647605;0.923623;18.3181;9.80764;10.1608;23533999;-37.71096761;145.03608619;83.31329884;0.00000000;0.00000000;4.74550624;3.36224740;
23534315;49.2;51;0;0;0;-75.4;-0.06;0;-0.33;0.01;0;0;1.0507;0.1279;51.1367;6.3602;626664;634716;151.351;0;61;-0.047;-0.064;23534226;1.0507;0.1279;51.1367;6.3602;0.92;437.514;0;-0.2;0;3214.5;3255.55;1;23534227;0.0600992;0.349715;0.124134;-0.344436;-0.0518615;0.928034;-3.86333;-2.97547;-2.44645;23533999;-37.71096761;145.03608619;83.31329884;0.00000000;0.00000000;4.74550624;3.36224740;
23534373;49.2;51;0;0;0;-75.7;-0.33;0;-0.33;0.09;0;0;1.0507;0.1279;51.1367;6.3602;626663;634799;151.337;0;61;-0.047;-0.067;23534316;1.0507;0.1279;51.1367;6.3602;0.92;437.54;0;-0.31;0;3214.5;3255.81;1;23534317;0.0682192;0.345571;0.128382;-0.32603;-0.0782052;0.933425;5.55014;2.80591;3.79161;23533999;-37.71096761;145.03608619;83.31329884;0.00000000;0.00000000;4.74550624;3.36224740;
23534466;49.2;51;0;0;0;-76.2;-0.09;0;-0.33;0.01;0;0;1.0507;0.1279;51.1367;6.3602;626664;634882;151.345;0;61;-0.047;-0.065;23534375;1.0507;0.1279;51.1367;6.3602;0.92;437.56;0;0.35;0;3214.5;3256.24;1;23534376;0.0627832;0.348861;0.125388;-0.349971;-0.0601737;0.934733;0.263708;0.131065;-0.142958;23533999;-37.71096761;145.03608619;83.31329884;0.00000000;0.00000000;4.74550624;3.36224740;
23534523;49.2;51.1;0;0;0;-75.5;-0.25;0;-0.34;0.05;0;0;1.0507;0.1279;51.1367;6.3602;626664;634906;151.347;0;61;-0.047;-0.065;23534467;1.0507;0.1279;51.1367;6.3602;0.92;437.584;0;-0.4;0;3214.5;3256.67;1;23534497;0.0667389;0.346022;0.127536;-0.33577;-0.0664842;0.936103;1.566;0.799487;0.946836;23533999;-37.71096761;145.03608619;83.31329884;0.00000000;0.00000000;4.74550624;3.36224740;
23534615;49.2;51;0;0;0;-75.4;-0.19;0;-0.35;0.03;0;0;1.0507;0.1279;51.1367;6.3602;626664;634908;151.345;0;61;-0.047;-0.065;23534525;1.0507;0.1279;51.1367;6.3602;0.92;437.597;0;-0.44;0;3214.5;3256.79;1;23534587;0.066863;0.345704;0.127513;-0.329427;-0.0752739;0.935481;0.550072;0.00763541;0.356254;23533999;-37.71096761;145.03608619;83.31329884;0.00000000;0.00000000;4.74550624;3.36224740;
23534674;49.2;51;0;0;0;-75.1;-0.25;0;-0.33;0.05;0;0;1.0507;0.1279;51.1367;6.3602;626664;634918;151.345;0;61;-0.047;-0.065;23534615;1.0507;0.1279;51.1367;6.3602;0.92;437.629;0;-0.43;0;3214.5;3256.79;1;23534587;0.066863;0.345704;0.127513;-0.329427;-0.0752739;0.935481;0.550072;0.00763541;0.356254;23533999;-37.71096761;145.03608619;83.31329884;0.00000000;0.00000000;4.74550624;3.36224740;
23534764;49.2;51;0;0;0;-74.6;-0.21;0;-0.33;0.03;0;0;1.0507;0.1279;51.1367;6.3602;626664;634922;151.349;0;61;-0.047;-0.065;23534675;1.0507;0.1279;51.1367;6.3602;0.92;437.647;0;0.4;0;3214.5;3256.84;1;23534676;0.0659572;0.346126;0.126967;-0.33939;-0.0630805;0.934572;0.139402;-0.174263;-0.0874464;23533999;-37.71096761;145.03608619;83.31329884;0.00000000;0.00000000;4.74550624;3.36224740;
23534825;49.2;51;0;0;0;-74.5;-0.23;0;-0.32;0.04;0;0;1.0507;0.1279;51.1367;6.3602;626664;634926;151.349;0;61;-0.047;-0.066;23534767;1.0507;0.1279;51.1367;6.3602;0.92;437.677;0;-0.31;0;3214.5;3256.86;1;23534767;0.0661981;0.345834;0.127088;-0.336648;-0.0709065;0.93398;1.50966;0.372581;0.821367;23533999;-37.71096761;145.03608619;83.31329884;0.00000000;0.00000000;4.74550624;3.36224740;
23534915;49.1;51.1;0;0;0;-74.6;-0.18;0;-0.32;0.03;0;0;1.0507;0.1279;51.1367;6.3602;626664;634932;151.347;0;61;-0.044;-0.061;23534827;1.0507;0.1279;51.1367;6.3602;0.92;437.705;0;-0.41;0;3214.5;3256.88;1;23534827;0.0654435;0.346154;0.126761;-0.333158;-0.064554;0.933536;0.496052;0.0691748;0.171124;23533999;-37.71096761;145.03608619;83.31329884;0.00000000;0.00000000;4.74550624;3.36224740;
23534973;49.2;51;0;0;0;-75;0;0;0;0;0;0;1.0507;0.1279;51.1367;6.3602;626664;634938;151.345;0;61;-0.002;-0.005;23534916;1.0507;0.1279;51.1367;6.3602;0.92;437.725;0;0;0;3214.5;3256.91;1;23534917;0.0657157;0.345791;0.126893;-0.336518;-0.0684558;0.933129;1.09202;0.37329;0.561137;23533999;-37.71096761;145.03608619;83.31329884;0.00000000;0.00000000;4.74550624;3.36224740;
23535065;49.2;51.1;0;0;0;-74.7;0;0;0;0;0;0;1.0507;0.1279;51.1367;6.3602;626664;634944;151.345;0;61;-0.002;-0.006;23534975;1.0507;0.1279;51.1367;6.3602;0.92;437.714;0;0;0;3214.5;3256.95;1;23534976;0.0646888;0.346258;0.126424;-0.339594;-0.0645599;0.932865;1.03103;0.251226;0.558481;23534999;-37.71096669;145.03608523;83.13302374;0.00000000;0.00000000;4.74433216;3.36390389;
23535125;49.2;51;0;0;0;-75.3;0;0;0;0;0;0;1.0507;0.1279;51.1367;6.3602;626664;634948;151.343;0;61;-0.002;-0.006;23535067;1.0507;0.1279;51.1367;6.3602;0.92;437.689;0;0;0;3214.5;3256.98;1;23535068;0.0650679;0.346122;0.12663;-0.337173;-0.0728623;0.932844;0.861998;0.0691369;0.185067;23534999;-37.71096669;145.03608523;83.13302374;0.00000000;0.00000000;4.74433216;3.36390389;
23535219;49.2;51;0;0;0;-74.7;0;0;0;0;0;0;1.0507;0.1279;51.1367;6.3602;626664;634948;151.349;0;61;-0.002;-0.006;23535127;1.0507;0.1279;51.1367;6.3602;0.92;437.674;0;0;0;3214.5;3257;1;23535128;0.0643504;0.34637;0.126305;-0.339106;-0.061142;0.932841;1.038;0.129655;0.375177;23534999;-37.71096669;145.03608523;83.13302374;0.00000000;0.00000000;4.74433216;3.36390389;
23535290;49.2;51.1;0;0;0;-74.7;0;0;0;0;0;0;1.0507;0.1279;51.1367;6.3602;626664;634948;151.349;0;61;-0.002;-0.006;23535221;1.0507;0.1279;51.1367;6.3602;0.92;437.648;0;0;0;3214.5;3257;1;23535221;0.0642299;0.346167;0.126346;-0.332312;-0.0694461;0.932812;0.618034;0.0691622;0.175772;23534999;-37.71096669;145.03608523;83.13302374;0.00000000;0.00000000;4.74433216;3.36390389;
23535338;49.1;51.1;0;0;0;-74.2;0;0;0;0;0;0;1.0507;0.1279;51.1367;6.3602;626664;634948;151.349;0;61;-0.002;-0.006;23535290;1.0507;0.1279;51.1367;6.3602;0.92;437.637;0;0;0;3214.5;3257;1;23535291;0.0641808;0.346247;0.126262;-0.334998;-0.0650341;0.932943;0.913693;0.312606;0.432018;23534999;-37.71096669;145.03608523;83.13302374;0.00000000;0.00000000;4.74433216;3.36390389;
23535394;49.2;51.1;0;0;0;-74.7;0;0;0;0;0;0;1.0507;0.1279;51.1367;6.3602;626664;634948;151.345;0;61;-0.001;-0.006;23535339;1.0507;0.1279;51.1367;6.3602;0.92;437.624;0;0;0;3214.5;3257;1;23535339;0.0641766;0.346389;0.12626;-0.337963;-0.0699192;0.933072;0.796359;0.0688111;0.304725;23534999;-37.71096669;145.03608523;83.13302374;0.00000000;0.00000000;4.74433216;3.36390389;
23535487;49.2;51.1;0;0;0;-74.9;0;0;0;0;0;0;1.0507;0.1279;51.1367;6.3602;626664;634948;151.349;0;61;-0.002;-0.006;23535394;1.0507;0.1279;51.1367;6.3602;0.92;437.616;0;0;0;3214.5;3257;1;23535395;0.0637107;0.346469;0.125996;-0.334208;-0.0650474;0.933147;0.491405;0.0688427;0.293105;23534999;-37.71096669;145.03608523;83.13302374;0.00000000;0.00000000;4.74433216;3.36390389;
23535545;49.2;51.1;0;0;0;-75.7;0;0;0;0;0;0;1.0507;0.1279;51.1367;6.3602;626664;634960;151.345;0;61;-0.002;-0.006;23535487;1.0507;0.1279;51.1367;6.3602;0.92;437.604;0;0;0;3214.5;3257;1;23535487;0.0634969;0.346556;0.125899;-0.335579;-0.067482;0.93288;1.39233;0.494996;0.69507;23534999;-37.71096669;145.03608523;83.13302374;0.00000000;0.00000000;4.74433216;3.36390389;
23535638;49.2;51.1;0;0;0;-75.6;0;0;0;0;0;0;1.0507;0.1279;51.1367;6.3602;626664;635082;151.341;0;61;-0.003;-0.006;23535545;1.0507;0.1279;51.1367;6.3602;0.92;437.59;0;0;0;3214.5;3257.06;1;23535547;0.0632979;0.34691;0.125751;-0.34076;-0.072351;0.932547;0.864322;0.435513;0.125074;23534999;-37.71096669;145.03608523;83.13302374;0.00000000;0.00000000;4.74433216;3.36390389;
23535694;49.2;51.1;0;0;0;-75.6;0;0;0;0;0;0;1.0507;0.1279;51.1367;6.3602;626663;635189;151.329;0;61;-0.003;-0.008;23535638;1.0507;0.1279;51.1367;6.3602;0.92;437.575;0;0;0;3214.5;3257.7;1;23535639;0.0622335;0.347456;0.125265;-0.33451;-0.0645458;0.932286;1.27499;0.556376;0.568608;23534999;-37.71096669;145.03608523;83.13302374;0.00000000;0.00000000;4.74433216;3.36390389;
23535788;49.2;51.1;0;0;0;-74.8;0;0;0;0;0;0;1.0507;0.1279;51.1367;6.3602;626663;635189;151.315;0;61;-0.003;-0.008;23535695;1.0507;0.1279;51.1367;6.3602;0.92;437.569;0;0;0;3214.5;3258.23;1;23535695;0.0596882;0.348856;0.124268;-0.340603;-0.0621557;0.931624;4.37448;3.41954;2.58797;23534999;-37.71096669;145.03608523;83.13302374;0.00000000;0.00000000;4.74433216;3.36390389;
23535873;49.2;51.1;0;0;0;-74.3;0;0;0;0;0;0;1.0507;0.1279;51.1367;6.3602;626663;635189;151.315;0;61;-0.002;-0.006;23535788;1.0507;0.1279;51.1367;6.3602;0.92;437.548;0;0;0;3214.5;3258.23;1;23535788;0.0570598;0.35124;0.123031;-0.337136;-0.0577229;0.931928;0.566339;-0.113272;-0.0710133;23534999;-37.71096669;145.03608523;83.13302374;0.00000000;0.00000000;4.74433216;3.36390389;
23535938;49.2;51.1;0;0;0;-75;0;0;0;0;0;0;1.0507;0.1279;51.1367;6.3602;626663;635189;151.313;0;61;-0.002;-0.006;23535874;1.0507;0.1279;51.1367;6.3602;0.92;437.537;0;0;0;3214.5;3258.23;1;23535874;0.056868;0.35127;0.122822;-0.34031;-0.0620998;0.931921;-0.458887;-1.4551;-0.419128;23534999;-37.71096669;145.03608523;83.13302374;0.00000000;0.00000000;4.74433216;3.36390389;
23535994;49.1;51.1;0;0;0;-74.7;0;0;0;0;0;0;1.0507;0.1279;51.1367;6.3602;626663;635189;151.309;0;61;-0.002;-0.007;23535938;1.0507;0.1279;51.1367;6.3602;0.92;437.525;0;0;0;3214.5;3258.23;1;23535939;0.0570675;0.350976;0.122839;-0.341193;-0.0611165;0.931714;1.50966;1.41018;0.824192;23534999;-37.71096669;145.03608523;83.13302374;0.00000000;0.00000000;4.74433216;3.36390389;
23536090;49.2;51.2;0;0;0;-74.4;0;0;0;0;0;0;1.0507;0.1279;51.1367;6.3602;626663;635189;151.313;0;61;-0.002;-0.007;23536023;1.0507;0.1279;51.1367;6.3602;0.92;437.525;0;0;0;3214.5;3258.23;1;23536024;0.0559782;0.35206;0.122336;-0.343386;-0.060157;0.93163;0.974684;0.19053;0.43401;23535999;-37.71096642;145.03608135;82.84422068;0.00000000;0.00000000;4.74078653;3.36889894;
23536143;49.2;51.2;0;0;0;-75.6;0;0;0;0;0;0;1.0507;0.1279;51.1367;6.3602;626663;635189;151.305;0;61;-0.002;-0.007;23536091;1.0507;0.1279;51.1367;6.3602;0.92;437.512;0;0;0;3214.5;3258.23;1;23536091;0.0552913;0.352281;0.12199;-0.340008;-0.0601601;0.93153;0.967713;0.190032;0.616982;23535999;-37.71096642;145.03608135;82.84422068;0.00000000;0.00000000;4.74078653;3.36889894;
23536263;49.1;51.2;0;0;0;-74.7;0;0;0;0;0;0;1.0507;0.1279;51.1367;6.3602;626663;635189;151.303;0;61;-0.002;-0.007;23536144;1.0507;0.1279;51.1367;6.3602;0.92;437.521;0;0;0;3214.5;3258.23;1;23536146;0.0546868;0.352756;0.121611;-0.345677;-0.0533103;0.93122;0.780092;1.10524;0.734484;23535999;-37.71096642;145.03608135;82.84422068;0.00000000;0.00000000;4.74078653;3.36889894;
23536323;49.2;51.2;0;0;0;-75.3;0;0;0;0;0;0;1.0507;0.1279;51.1367;6.3602;626663;635189;151.297;0;61;-0.002;-0.006;23536264;1.0507;0.1279;51.1367;6.3602;0.92;437.501;0;0;0;3214.5;3258.23;1;23536265;0.0546715;0.353125;0.121451;-0.342108;-0.0582174;0.930953;1.44634;-0.115858;0.878704;23535999;-37.71096642;145.03608135;82.84422068;0.00000000;0.00000000;4.74078653;3.36889894;
23536388;49.2;51.2;0;0;0;-74.9;0;0;0;0;0;0;1.0507;0.1279;51.1367;6.3602;626663;635189;151.297;0;61;-0.002;-0.005;23536324;1.0507;0.1279;51.1367;6.3602;0.92;437.488;0;0;0;3214.5;3258.23;1;23536325;0.0542185;0.350885;0.121235;-0.34254;-0.0547954;0.930765;-0.106885;-2.31063;-0.0415675;23535999;-37.71096642;145.03608135;82.84422068;0.00000000;0.00000000;4.74078653;3.36889894;
23536445;49.2;51.2;0;0;0;-75.2;0;0;0;0;0;0;1.0507;0.1279;51.1367;6.3602;626663;635189;151.301;0;61;-0.001;-0.006;23536389;1.0507;0.1279;51.1367;6.3602;0.92;437.488;0;0;0;3214.5;3258.23;1;23536389;0.0547606;0.350426;0.121535;-0.348056;-0.0626179;0.931024;1.10596;0.740496;0.196191;23535999;-37.71096642;145.03608135;82.84422068;0.00000000;0.00000000;4.74078653;3.36889894;
23536536;49.1;51.2;0;0;0;-74.6;0;0;0;0;0;0;1.0507;0.1279;51.1367;6.3602;626663;635189;151.295;0;61;-0.002;-0.005;23536446;1.0507;0.1279;51.1367;6.3602;0.92;437.49;0;0;0;3214.5;3258.23;1;23536446;0.0541593;0.351112;0.121495;-0.347684;-0.0547789;0.931496;1.04497;0.679467;0.193701;23535999;-37.71096642;145.03608135;82.84422068;0.00000000;0.00000000;4.74078653;3.36889894;
23536595;49.2;51.2;0;0;0;-76;0;0;0;0;0;0;1.0507;0.1279;51.1367;6.3602;626663;635189;151.307;0;61;-0.002;-0.006;23536536;1.0507;0.1279;51.1367;6.3602;0.919;437.478;0;0;0;3214.5;3258.23;1;23536537;0.0565298;0.349233;0.122629;-0.336574;-0.0611356;0.931526;-0.113857;0.557518;0.149215;23535999;-37.71096642;145.03608135;82.84422068;0.00000000;0.00000000;4.74078653;3.36889894;
23536688;49.2;51.2;0;0;0;-76.1;0;0;0;0;0;0;1.0507;0.1279;51.1367;6.3602;626663;635189;151.301;0;61;-0.002;-0.006;23536595;1.0507;0.1279;51.1367;6.3602;0.919;437.477;0;0;0;3214.5;3258.23;1;23536595;0.0569905;0.349762;0.122857;-0.341471;-0.0645544;0.931708;0.273004;-1.39414;-0.391076;23535999;-37.71096642;145.03608135;82.84422068;0.00000000;0.00000000;4.74078653;3.36889894;
23536775;49.2;51.2;0;0;0;-74.6;0;0;0;0;0;0;1.0507;0.1279;51.1367;6.3602;626663;635189;151.305;0;61;-0.002;-0.006;23536689;1.0507;0.1279;51.1367;6.3602;0.919;437.466;0;0;0;3214.5;3258.23;1;23536689;0.0566347;0.34954;0.12281;-0.340909;-0.057225;0.931675;0.552396;-0.785653;0.293103;23535999;-37.71096642;145.03608135;82.84422068;0.00000000;0.00000000;4.74078653;3.36889894;
23536839;49.2;51.2;0;0;0;-73.5;0;0;0;0;0;0;1.0507;0.1279;51.1367;6.3602;626663;635189;151.301;0;61;-0.002;-0.006;23536775;1.0507;0.1279;51.1367;6.3602;0.919;437.457;0;0;0;3214.5;3258.23;1;23536775;0.0567025;0.349657;0.122776;-0.345919;-0.0567455;0.931723;1.21865;0.617749;0.444469;23535999;-37.71096642;145.03608135;82.84422068;0.00000000;0.00000000;4.74078653;3.36889894;
23536893;49.2;51.2;0;0;0;-74.9;0;0;0;0;0;0;1.0507;0.1279;51.1367;6.3602;626663;635189;151.309;0;61;-0.001;-0.003;23536839;1.0507;0.1279;51.1367;6.3602;0.919;437.449;0;0;0;3214.5;3258.23;1;23536840;0.0559875;0.350887;0.122728;-0.370106;-0.0375803;0.931896;2.98914;-2.30762;-1.14519;23535999;-37.71096642;145.03608135;82.84422068;0.00000000;0.00000000;4.74078653;3.36889894;
23536989;49.2;51.2;0;0;0;-74.4;0;0;0;0;0;0;1.0507;0.1279;51.1367;6.3602;626663;635189;151.307;0;61;-0.002;-0.006;23536894;1.0507;0.1279;51.1367;6.3602;0.919;437.455;0;0;0;3214.5;3258.23;1;23536894;0.0554826;0.342376;0.121681;-0.298892;-0.0542957;0.931682;0.648244;-0.905238;-0.619766;23535999;-37.71096642;145.03608135;82.84422068;0.00000000;0.00000000;4.74078653;3.36889894;
23537045;49.2;51.2;0;0;0;-75;0;0;0;0;0;0;1.0507;0.1279;51.1367;6.3602;626663;635189;151.311;0;61;-0.002;-0.004;23536989;1.0507;0.1279;51.1367;6.3602;0.919;437.45;0;0;0;3214.5;3258.23;1;23536990;0.0568128;0.344397;0.12284;-0.33721;-0.0577283;0.932361;0.0383355;-3.2245;-0.649319;23535999;-37.71096642;145.03608135;82.84422068;0.00000000;0.00000000;4.74078653;3.36889894;
23537239;49.2;51.2;0;0;0;-74.7;0;0;0;0;0;0;1.0507;0.1279;51.1367;6.3602;626663;635189;151.309;0;61;-0.002;-0.007;23537045;1.0507;0.1279;51.1367;6.3602;0.919;437.451;0;0;0;3214.5;3258.23;1;23537046;0.0573208;0.339967;0.122654;-0.31944;-0.0611334;0.932831;-0.31542;-5.60832;0.613385;23536999;-37.71096693;145.03607750;82.80100196;0.00000000;0.00000000;4.74084399;3.36881808;
23537292;49.2;51.2;0;0;0;-77.4;0;0;0;0;0;0;1.0507;0.1279;51.1367;6.3602;626663;635189;151.315;0;61;-0.002;-0.005;23537240;1.0507;0.1279;51.1367;6.3602;0.919;437.444;0;0;0;3214.5;3258.23;1;23537241;0.0570149;0.340986;0.122158;-0.344153;-0.0635949;0.933299;0.103974;2.51311;-0.753356;23536999;-37.71096693;145.03607750;82.80100196;0.00000000;0.00000000;4.74084399;3.36881808;
23537345;49.2;51.2;0;0;0;-80.7;0;0;0;0;0;0;1.0507;0.1279;51.1367;6.3602;626663;635189;151.313;0;61;-0.002;-0.008;23537293;1.0507;0.1279;51.1367;6.3602;0.919;437.441;0;0;0;3214.5;3258.23;1;23537293;0.0604381;0.337365;0.124458;-0.331601;-0.0787076;0.934948;3.14536;1.77106;2.78097;23536999;-37.71096693;145.03607750;82.80100196;0.00000000;0.00000000;4.74084399;3.36881808;
23537439;49.2;51.1;0;0;0;-82.5;0;0;0;0;0;0;1.0507;0.1279;51.1367;6.3602;626663;635189;151.307;0;61;-0.002;-0.006;23537345;1.0507;0.1279;51.1367;6.3602;0.919;437.444;0;0;0;3214.5;3258.23;1;23537346;0.0572682;0.338655;0.123242;-0.357099;-0.068495;0.935223;1.01651;-1.14925;-0.667478;23536999;-37.71096693;145.03607750;82.80100196;0.00000000;0.00000000;4.74084399;3.36881808;
23537493;49.2;51.1;0;0;0;-83.6;0;0;0;0;0;0;1.0507;0.1279;51.1367;6.3602;626663;635189;151.309;0;61;-0.002;-0.005;23537440;1.0507;0.1279;51.1367;6.3602;0.919;437.433;0;0;0;3214.5;3258.23;1;23537440;0.0537;0.338539;0.121916;-0.331216;-0.0602302;0.936379;4.64343;0.740129;0.330974;23536999;-37.71096693;145.03607750;82.80100196;0.00000000;0.00000000;4.74084399;3.36881808;
23537589;49.1;51.2;0;0;0;-83.3;0;0;0;0;0;0;1.0507;0.1279;51.1367;6.3602;626663;635189;151.299;0;61;-0.003;-0.007;23537495;1.0507;0.1279;51.1367;6.3602;0.919;437.436;0;0;0;3214.5;3258.23;1;23537495;0.0463286;0.335777;0.118886;-0.295067;-0.0674503;0.937537;5.10462;-2.01713;4.25014;23536999;-37.71096693;145.03607750;82.80100196;0.00000000;0.00000000;4.74084399;3.36881808;
23537645;49.2;51.1;0;0;0;-82.6;0;0;0;0;0;0;1.0507;0.1279;51.1367;6.3602;626663;635189;151.301;0;61;-0.002;-0.005;23537589;1.0507;0.1279;51.1367;6.3602;0.919;437.428;0;0;0;3214.5;3258.23;1;23537589;0.0527909;0.338386;0.121065;-0.344302;-0.0631172;0.935217;-7.45307;2.462;-4.40081;23536999;-37.71096693;145.03607750;82.80100196;0.00000000;0.00000000;4.74084399;3.36881808;
23537741;49.2;51.1;0;0;0;-82.6;0;0;0;0;0;0;1.0507;0.1279;51.1367;6.3602;626663;635189;151.295;0;61;-0.002;-0.007;23537645;1.0507;0.1279;51.1367;6.3602;0.919;437.437;0;0;0;3214.5;3258.23;1;23537647;0.0601113;0.338807;0.123178;-0.32385;-0.0752944;0.93594;-4.16307;-3.34564;-0.992969;23536999;-37.71096693;145.03607750;82.80100196;0.00000000;0.00000000;4.74084399;3.36881808;
23537795;49.2;51.1;0;0;0;-82.4;0;0;0;0;0;0;1.0507;0.1279;51.1367;6.3602;626663;635189;151.299;0;61;-0.001;-0.006;23537741;1.0507;0.1279;51.1367;6.3602;0.919;437.438;0;0;0;3214.5;3258.23;1;23537741;0.0571102;0.339839;0.122063;-0.344227;-0.0323503;0.936181;2.37805;4.21437;2.08651;23536999;-37.71096693;145.03607750;82.80100196;0.00000000;0.00000000;4.74084399;3.36881808;
23537889;49.2;51.1;0;0;0;-82.2;0;0;0;0;0;0;1.0507;0.1279;51.1367;6.3602;626663;635189;151.287;0;61;-0.002;-0.007;23537796;1.0507;0.1279;51.1367;6.3602;0.919;437.435;0;0;0;3214.5;3258.23;1;23537796;0.0594625;0.341337;0.12354;-0.323641;-0.0714081;0.936069;-0.609326;-0.23206;-1.27665;23536999;-37.71096693;145.03607750;82.80100196;0.00000000;0.00000000;4.74084399;3.36881808;
23537944;49.2;51.1;0;0;0;-78.3;0;0;0;0;0;0;1.0507;0.1279;51.1367;6.3602;626663;635189;151.295;0;61;-0.002;-0.005;23537889;1.0507;0.1279;51.1367;6.3602;0.919;437.432;0;0;0;3214.5;3258.23;1;23537889;0.0595177;0.346307;0.123815;-0.346671;-0.0796786;0.935971;-0.508259;2.69611;-0.715105;23536999;-37.71096693;145.03607750;82.80100196;0.00000000;0.00000000;4.74084399;3.36881808;
23538040;49.1;51.1;0;0;0;-77.4;0;0;0;0;0;0;1.0507;0.1279;51.1367;6.3602;626663;635189;151.317;0;61;-0.001;0;23537945;1.0507;0.1279;51.1367;6.3602;0.919;437.431;0;0;0;3214.5;3258.23;1;23537946;0.0598399;0.343945;0.123616;-0.344004;-0.0621194;0.935392;1.37198;-8.60503;2.80731;23536999;-37.71096693;145.03607750;82.80100196;0.00000000;0.00000000;4.74084399;3.36881808;
23538094;49.2;51.1;0;0;0;-79.2;0;0;0;0;0;0;1.0507;0.1279;51.1367;6.3602;626663;635189;151.325;0;61;-0.002;-0.003;23538040;1.0507;0.1279;51.1367;6.3602;0.919;437.434;0;0;0;3214.5;3258.23;1;23538040;0.0687696;0.331786;0.127442;-0.335825;-0.0791834;0.936767;-9.10215;-1.50526;-4.41337;23537999;-37.71096824;145.03607331;82.84447572;0.00000000;0.00000000;4.73969237;3.37043815;
23538190;49.2;51.1;0;0;0;-82.3;-0.15;0;-0.07;0.13;0;0;1.0507;0.1279;51.1367;6.3602;626663;635211;151.255;0;61;-0.039;-0.063;23538095;1.0507;0.1279;51.1367;6.3602;0.919;437.43;0;0;0;3214.5;3258.23;1;23538095;0.0820009;0.328044;0.132218;-0.31036;-0.10736;0.939599;-6.35466;-2.79144;-2.78519;23537999;-37.71096824;145.03607331;82.84447572;0.00000000;0.00000000;4.73969237;3.37043815;
23538245;49.2;51.1;0;0;0;-82.7;0.16;0;-0.33;-0.03;0;0;1.0507;0.1279;51.1367;6.3602;626663;635211;151.267;0;61;-0.043;-0.076;23538191;1.0507;0.1279;51.1367;6.3602;0.919;437.466;0;-0.22;0;3214.5;3258.35;1;23538191;0.0572676;0.337208;0.117219;-0.330449;-0.056304;0.932956;-0.769102;3.78046;4.53076;23537999;-37.71096824;145.03607331;82.84447572;0.00000000;0.00000000;4.73969237;3.37043815;
23538343;49.2;51.1;0;0;0;-81.5;0.14;0;-0.34;-0.02;0;0;1.0507;0.1279;51.1367;6.3602;626663;635211;151.291;0;61;-0.045;-0.075;23538245;1.0507;0.1279;51.1367;6.3602;0.92;437.493;0;-0.35;0;3214.5;3258.35;1;23538247;0.0625252;0.336758;0.123311;-0.349251;-0.0738988;0.934117;-3.27666;-4.44203;-1.8173;23537999;-37.71096824;145.03607331;82.84447572;0.00000000;0.00000000;4.73969237;3.37043815;
23538395;49.2;51.1;0;0;0;-81.2;-0.19;0;-0.33;0.03;0;0;1.0507;0.1279;51.1367;6.3602;626663;635211;151.283;0;61;-0.044;-0.073;23538343;1.0507;0.1279;51.1367;6.3602;0.92;437.527;0;-0.4;0;3214.5;3258.35;1;23538343;0.0701208;0.333627;0.12647;-0.309482;-0.0801281;0.937068;-2.88923;-0.416592;-0.753219;23537999;-37.71096824;145.03607331;82.84447572;0.00000000;0.00000000;4.73969237;3.37043815;
23538490;49.2;51.1;0;0;0;-82.2;0.1;0;-0.32;-0.01;0;0;1.0507;0.1279;51.1367;6.3602;626663;635211;151.319;0;61;-0.046;-0.068;23538395;1.0507;0.1279;51.1367;6.3602;0.92;437.556;0;-0.45;0;3214.5;3258.35;1;23538395;0.0719464;0.333034;0.126731;-0.352285;-0.0636872;0.937369;-1.93486;-1.45146;-1.75803;23537999;-37.71096824;145.03607331;82.84447572;0.00000000;0.00000000;4.73969237;3.37043815;
23538545;49.2;51.1;0;0;0;-80.8;-0.3;0;-0.26;0.14;0;0;1.0507;0.1279;51.1367;6.3602;626663;635211;151.255;0;61;-0.047;-0.086;23538491;1.0507;0.1279;51.1367;6.3602;0.92;437.601;0;-0.28;0;3214.5;3258.35;1;23538491;0.074243;0.32898;0.12981;-0.268468;-0.0898261;0.937196;12.682;6.15743;5.7827;23537999;-37.71096824;145.03607331;82.84447572;0.00000000;0.00000000;4.73969237;3.37043815;
23538641;49.2;51.1;0;0;0;-80.6;-0.01;0;-0.33;0;0;0;1.0507;0.1279;51.1367;6.3602;626663;635211;151.253;0;61;-0.04;-0.074;23538545;1.0507;0.1279;51.1367;6.3602;0.92;437.625;0;-0.25;0;3214.5;3258.35;1;23538545;0.0564144;0.339136;0.118669;-0.346932;-0.0411231;0.936092;5.1685;3.59392;5.79484;23537999;-37.71096824;145.03607331;82.84447572;0.00000000;0.00000000;4.73969237;3.37043815;
23538695;49.2;51.1;0;0;0;-78.8;0.1;0;-0.34;-0.01;0;0;1.0507;0.1279;51.1367;6.3602;626663;635211;151.257;0;61;-0.041;-0.075;23538641;1.0507;0.1279;51.1367;6.3602;0.92;437.66;0;0.38;0;3214.5;3258.35;1;23538641;0.0572144;0.341615;0.120705;-0.34952;-0.0723834;0.936325;1.81054;-0.364525;2.54105;23537999;-37.71096824;145.03607331;82.84447572;0.00000000;0.00000000;4.73969237;3.37043815;
23538791;49.2;51.1;0;0;0;-79.5;-0.12;0;-0.33;0.02;0;0;1.0507;0.1279;51.1367;6.3602;626663;635211;151.247;0;61;-0.042;-0.08;23538695;1.0507;0.1279;51.1367;6.3602;0.92;437.676;0;-0.45;0;3214.5;3258.35;1;23538695;0.0556626;0.339263;0.119402;-0.325783;-0.0665038;0.936564;2.35713;-1.03613;2.62113;23537999;-37.71096824;145.03607331;82.84447572;0.00000000;0.00000000;4.73969237;3.37043815;
23538845;49.2;51.1;0;0;0;-80.4;0.04;0;-0.34;0;0;0;1.0507;0.1279;51.1367;6.3602;626663;635211;151.247;0;61;-0.04;-0.076;23538791;1.0507;0.1279;51.1367;6.3602;0.92;437.733;0;0.48;0;3214.5;3258.35;1;23538791;0.0560098;0.340626;0.121273;-0.33438;-0.0713724;0.936328;-0.673211;-2.30308;-2.81171;23537999;-37.71096824;145.03607331;82.84447572;0.00000000;0.00000000;4.73969237;3.37043815;
23538941;49.2;51.1;0;0;0;-81.5;0.02;0;-0.34;0;0;0;1.0507;0.1279;51.1367;6.3602;626663;635211;151.241;0;61;-0.041;-0.079;23538845;1.0507;0.1279;51.1367;6.3602;0.92;437.754;0;-0.32;0;3214.5;3258.35;1;23538847;0.0570568;0.33988;0.121289;-0.333363;-0.06701;0.93607;0.813197;-1.64333;1.46122;23537999;-37.71096824;145.03607331;82.84447572;0.00000000;0.00000000;4.73969237;3.37043815;
23538994;49.2;51.1;0;0;0;-81.5;0.16;0;-0.34;-0.02;0;0;1.0507;0.1279;51.1367;6.3602;626663;635211;151.247;0;61;-0.041;-0.079;23538941;1.0507;0.1279;51.1367;6.3602;0.92;437.79;0;0.46;0;3214.5;3258.35;1;23538941;0.0568234;0.338118;0.120854;-0.33083;-0.0670036;0.935951;-0.388601;-1.88169;-0.66193;23537999;-37.71096824;145.03607331;82.84447572;0.00000000;0.00000000;4.73969237;3.37043815;
23539091;49.2;51.1;0;0;0;-81.4;0.14;0;-0.35;-0.02;0;0;1.0507;0.1279;51.1367;6.3602;626663;635211;151.255;0;61;-0.042;-0.079;23538995;1.0507;0.1279;51.1367;6.3602;0.92;437.816;0;0.38;0;3214.5;3258.35;1;23538995;0.0579147;0.334586;0.122076;-0.34649;-0.0714696;0.93612;3.04605;-7.86646;0.552075;23538999;-37.71096949;145.03606975;82.82877300;0.00000000;0.00000000;4.73953359;3.37066142;
23539145;49.2;51.1;0;0;0;-79.7;-0.06;0;-0.33;0.03;0;0;1.0507;0.1279;51.1367;6.3602;626663;635211;151.229;0;61;-0.043;-0.082;23539091;1.0507;0.1279;51.1367;6.3602;0.92;437.844;0;0.26;0;3214.5;3258.35;1;23539091;0.054944;0.316529;0.120285;-0.311652;-0.0612753;0.940439;-2.57555;-13.7783;-2.61004;23538999;-37.71096949;145.03606975;82.82877300;0.00000000;0.00000000;4.73953359;3.37066142;
23539239;49.2;51.1;0;0;0;-79.7;-0.72;0;0.01;0.72;-25;0;1.0507;0.1279;51.1367;6.3602;626662;635212;150.486;0;61;-0.025;-0.197;23539145;1.0507;0.1279;51.1367;6.3602;0.92;437.866;0;-0.28;0;3214.5;3258.35;1;23539145;0.0557033;0.302164;0.119768;-0.363458;-0.0155179;0.949376;-0.124904;-24.472;1.97412;23538999;-37.71096949;145.03606975;82.82877300;0.00000000;0.00000000;4.73953359;3.37066142;
23539295;49.2;51.1;0;0;0;-80.5;-2.88;-0.01;0.4;2.88;-129;0;1.0507;0.1279;51.1367;6.3602;626661;635213;149.076;0;61;0.05;-0.269;23539239;1.0507;0.1279;51.1367;6.3602;0.92;437.892;0;-1.47;-0.013;3214.49;3258.35;1;23539240;0.0455068;0.236141;0.110278;-0.198598;-0.114485;0.994975;13.0479;-56.3424;5.62647;23538999;-37.71096949;145.03606975;82.82877300;0.00000000;0.00000000;4.73953359;3.37066142;
23539393;49;51.1;0;0;0;-81.4;10.17;1.28;0.26;17.49;92;0.079;1.0507;0.1279;51.1379;6.3603;626658;635216;147.126;0;61;-0.033;0.543;23539295;1.0507;0.1279;51.1367;6.3602;0.92;437.922;-0.02;-4.62;-0.067;3214.49;3258.36;1;23539296;0.043247;0.16141;0.108569;-0.215072;-0.122463;1.0378;-1.35801;-84.0123;-9.10716;23538999;-37.71096949;145.03606975;82.82877300;0.00000000;0.00000000;4.73953359;3.37066142;
23539445;49.1;51.1;0;0;0;-82.3;29.17;1.75;0.1;28.96;228;0.078;1.0508;0.1279;51.1396;6.3603;626660;635218;148.327;0;61;0.043;1.783;23539393;1.0507;0.1279;51.1379;6.3603;0.92;437.838;2.94;45.13;0.048;3214.47;3258.37;1;23539393;0.0419385;0.0574452;0.110741;-0.955101;0.128149;1.08586;6.26516;-64.53;8.88836;23538999;-37.71096949;145.03606975;82.82877300;0.00000000;0.00000000;4.73953359;3.37066142;
23539537;49;51.1;0;0;0;-81.6;38.58;3.89;0.05;38.6;622;0.106;1.0509;0.1279;51.1443;6.3603;626666;635224;153.378;0;61;-0.102;2.977;23539445;1.0508;0.1279;51.1396;6.3603;0.92;437.753;1.71;26.42;0.118;3214.48;3258.38;1;23539477;0.0440159;0.00445273;0.0959044;-0.0736235;-0.519556;1.06599;26.0234;-63.6559;1.70321;23538999;-37.71096949;145.03606975;82.82877300;0.00000000;0.00000000;4.73953359;3.37066142;
23539595;48.9;51.1;0;0;0;-82.3;35.42;3.4;0.06;35.53;701;0.124;1.0509;0.1279;51.1469;6.3603;626671;635229;156.868;0;61;-0.23;2.868;23539538;1.0509;0.1279;51.1443;6.3603;0.919;437.414;2.55;29.11;0.32;3214.51;3258.41;1;23539538;-0.0199325;-0.0251613;0.0776562;0.332694;0.256722;0.976561;-18.2498;15.5505;30.5275;23538999;-37.71096949;145.03606975;82.82877300;0.00000000;0.00000000;4.73953359;3.37066142;
23539684;48.8;51.1;0;0;0;-83.8;44.57;5.18;0.07;44.62;899;0.162;1.051;0.1279;51.153;6.3603;626679;635237;163.476;0;61;-0.411;3.559;23539595;1.0509;0.1279;51.1469;6.3603;0.919;437.221;3.98;39.88;0.36;3214.54;3258.44;1;23539596;0.0490273;-0.0231316;0.0653904;0.00939321;-0.252715;0.924072;-42.9869;-6.85786;-11.2162;23538999;-37.71096949;145.03606975;82.82877300;0.00000000;0.00000000;4.73953359;3.37066142;
23539745;48.8;51.1;0;0;0;-84;47.81;6.44;0.05;47.78;1114;0.165;1.0511;0.1279;51.1583;6.3603;626687;635245;169.3;0;61;-0.489;4.154;23539694;1.051;0.1279;51.153;6.3603;0.918;436.797;6.57;48.75;0.462;3214.58;3258.48;1;23539694;0.111247;-0.0172745;0.0768349;-0.288143;-0.307887;0.923454;-28.5716;-12.3553;-9.64355;23538999;-37.71096949;145.03606975;82.82877300;0.00000000;0.00000000;4.73953359;3.37066142;
23539844;48.8;51.2;0;0;0;-84;42.78;5.64;-0.01;42.75;1343;0.164;1.0513;0.1279;51.1652;6.3603;626699;635257;179.268;0;61;-0.761;4.098;23539745;1.0511;0.1279;51.1583;6.3603;0.917;436.426;6.12;45.88;0.573;3214.62;3258.52;1;23539745;0.133957;-0.0114348;0.0828717;-0.0105316;-0.0905633;0.932114;-8.72866;0.688131;-2.98833;23538999;-37.71096949;145.03606975;82.82877300;0.00000000;0.00000000;4.73953359;3.37066142;
23539894;48.7;51.2;0;0;0;-84.1;45.37;6.49;0.07;45.43;1456;0.188;1.0514;0.1279;51.1703;6.3603;626708;635266;186.357;0;61;-0.504;4.433;23539845;1.0513;0.1279;51.1652;6.3603;0.916;435.969;5.81;42.58;0.689;3214.68;3258.58;1;23539845;0.139242;-0.0123907;0.0895384;0.018688;-0.311412;0.944082;18.6418;6.62647;-9.56426;23538999;-37.71096949;145.03606975;82.82877300;0.00000000;0.00000000;4.73953359;3.37066142;
23539985;48.6;51.2;0;0;0;-83.2;54.18;8.65;0.03;54.24;1576;0.203;1.0516;0.1279;51.1806;6.3603;626723;635281;197.651;0;61;-0.957;4.952;23539895;1.0514;0.1279;51.1703;6.3603;0.916;435.626;7.69;49.51;0.748;3214.73;3258.63;1;23539895;0.122378;-0.00860101;0.106083;0.0508732;-0.0157286;0.955159;14.8685;3.95064;-13.1358;23538999;-37.71096949;145.03606975;82.82877300;0.00000000;0.00000000;4.73953359;3.37066142;
23540044;48.5;51.2;0;0;0;-83.1;61.48;10.8;0.3;61.53;1674;0.231;1.0518;0.1279;51.1892;6.3603;626733;635291;205.645;0;61;-1.144;5.469;23539985;1.0516;0.1279;51.1806;6.3603;0.914;434.891;9.93;58.79;0.809;3214.81;3258.7;1;23539985;0.107793;-0.0049315;0.128547;-0.137064;-0.0163437;0.979498;-20.6892;1.51293;-14.4972;23538999;-37.71096949;145.03606975;82.82877300;0.00000000;0.00000000;4.73953359;3.37066142;
23540135;48.6;51.3;0;0;0;-83;54.47;9.71;-0.1;54.37;1998;0.217;1.052;0.1279;51.2013;6.3603;626752;635310;220.261;0;61;-1.189;5.58;23540045;1.0518;0.1279;51.1892;6.3603;0.913;434.277;11.91;63.47;0.861;3214.86;3258.76;1;23540047;0.133308;0.0014917;0.1442;-0.168843;-0.23607;1.0015;-15.146;2.36634;-14.1005;23539999;-37.71097146;145.03607005;82.90881977;0.00000000;0.00000000;4.73950092;3.37070736;
23540195;48.7;51.3;0;0;0;-82.3;47.55;8.36;-0.17;47.46;2180;0.201;1.0522;0.1279;51.2082;6.3603;626766;635324;231.135;0;61;-1.3;5.537;23540135;1.052;0.1279;51.2013;6.3603;0.911;433.446;8.71;50.97;1.025;3214.95;3258.85;1;23540135;0.142888;0.0218207;0.170878;-0.0605079;-0.246229;1.01302;15.5981;5.92097;-19.4549;23539999;-37.71097146;145.03607005;82.90881977;0.00000000;0.00000000;4.73950092;3.37070736;
23540296;48.7;51.3;0;0;0;-81.9;38.38;6.24;0;38.41;2267;0.207;1.0523;0.1279;51.2158;6.3603;626786;635344;247.098;0;61;-1.116;5.121;23540195;1.0522;0.1279;51.2082;6.3603;0.91;432.973;6.71;41.4;1.118;3215.03;3258.93;1;23540196;0.119439;0.0270974;0.192838;-0.0834235;-0.0359869;1.00653;11.3508;13.4216;-16.9699;23539999;-37.71097146;145.03607005;82.90881977;0.00000000;0.00000000;4.73950092;3.37070736;
23540345;48.5;51.4;0;0;0;-81.8;49.87;8.91;0.41;49.98;2229;0.246;1.0525;0.1279;51.2227;6.3603;626799;635357;257.311;0;61;-1.171;5.586;23540296;1.0523;0.1279;51.2158;6.3603;0.909;432.509;7.8;45.97;1.163;3215.13;3259.03;1;23540296;0.0920998;0.0268017;0.220932;0.0324011;-0.0706534;1.00119;19.1524;12.3697;-11.728;23539999;-37.71097146;145.03607005;82.90881977;0.00000000;0.00000000;4.73950092;3.37070736;
23540435;48.7;51.4;0;0;0;-80.8;49.02;9.14;-0.09;48.87;2463;0.213;1.0527;0.1279;51.2343;6.3603;626822;635380;274.833;0;61;-1.518;5.873;23540345;1.0525;0.1279;51.2227;6.3603;0.908;432.04;11.51;58.68;1.144;3215.2;3259.1;1;23540345;0.069337;0.0285247;0.230546;-0.160308;-0.104289;1.01173;13.8148;-1.49567;-7.9379;23539999;-37.71097146;145.03607005;82.90881977;0.00000000;0.00000000;4.73950092;3.37070736;
23540495;48.9;51.5;0;0;0;-80.5;27.01;4.48;-0.16;26.9;2660;0.201;1.0528;0.1279;51.2382;6.3603;626839;635397;287.939;0;61;-0.751;5.285;23540435;1.0527;0.1279;51.2343;6.3603;0.906;431.298;5.99;35.18;1.266;3215.31;3259.21;1;23540435;0.0542681;0.0579454;0.253671;-0.374705;-0.01747;1.01584;13.5831;0.244767;-19.486;23539999;-37.71097146;145.03607005;82.90881977;0.00000000;0.00000000;4.73950092;3.37070736;
23540595;48.5;51.5;0;0;0;-80.6;47.26;9.01;0.24;47.47;2561;0.242;1.053;0.1279;51.2484;6.3603;626862;635420;305.874;0;61;-1.515;5.95;23540495;1.0528;0.1279;51.2382;6.3603;0.906;431.123;4.48;27.1;1.364;3215.4;3259.3;1;23540496;0.0216264;0.0532015;0.263566;0.447467;-0.0123943;1.00057;25.3815;7.52167;-2.09763;23539999;-37.71097146;145.03607005;82.90881977;0.00000000;0.00000000;4.73950092;3.37070736;
23540645;48.7;51.5;0;0;0;-79;50.17;9.75;-0.27;50;2617;0.228;1.0532;0.1279;51.2567;6.3603;626878;635436;318.327;0;61;-1.435;6.134;23540596;1.053;0.1279;51.2484;6.3603;0.905;430.454;11.09;58.4;1.313;3215.52;3259.42;1;23540596;-0.032574;0.0320044;0.259942;-0.0472331;0.0876199;1.02131;28.7406;0.91242;4.30357;23539999;-37.71097146;145.03607005;82.90881977;0.00000000;0.00000000;4.73950092;3.37070736;
23540735;48.5;51.6;0;0;0;-78;44.55;8.72;0.23;44.59;2806;0.26;1.0534;0.1279;51.2671;6.3603;626903;635461;338.326;0;61;-1.66;6.191;23540645;1.0532;0.1279;51.2567;6.3603;0.904;429.95;7.63;40.88;1.342;3215.6;3259.5;1;23540647;-0.0662733;0.0493157;0.243451;-0.129206;0.388478;1.02536;0.820616;-2.12678;22.1051;23539999;-37.71097146;145.03607005;82.90881977;0.00000000;0.00000000;4.73950092;3.37070736;
23540797;48.7;51.6;0;0;0;-76.9;42.13;8.43;-0.29;41.97;2974;0.23;1.0535;0.1279;51.2743;6.3603;626922;635480;352.796;0;61;-1.494;6.355;23540735;1.0534;0.1279;51.2671;6.3603;0.902;429.321;10.08;48.14;1.44;3215.73;3259.63;1;23540735;-0.0579363;0.0521493;0.207505;-0.144289;-0.133941;1.02167;-3.2681;4.70939;22.029;23539999;-37.71097146;145.03607005;82.90881977;0.00000000;0.00000000;4.73950092;3.37070736;
23540885;48.6;51.7;0;0;0;-78.2;34.63;6.93;0.11;34.7;3193;0.257;1.0537;0.1279;51.2823;6.3603;626951;635509;15.6536;0;61;-1.582;6.272;23540797;1.0535;0.1279;51.2743;6.3603;0.902;428.926;6.02;32.88;1.525;3215.83;3259.72;1;23540797;-0.0431857;0.0698649;0.183;-0.231358;0.047797;1.01189;-8.72768;-4.5173;25.8271;23539999;-37.71097146;145.03607005;82.90881977;0.00000000;0.00000000;4.73950092;3.37070736;
23540947;48.7;51.7;0;0;0;-77.2;36.18;7.22;-0.13;36.06;3243;0.241;1.0538;0.1279;51.2885;6.3603;626971;635529;31.0125;0;61;-1.418;6.365;23540885;1.0537;0.1279;51.2823;6.3603;0.901;428.51;9.5;45.02;1.638;3215.98;3259.88;1;23540895;-0.00892916;0.0543693;0.141954;-0.215577;0.0763364;1.01569;-40.2246;8.45847;31.7643;23539999;-37.71097146;145.03607005;82.90881977;0.00000000;0.00000000;4.73950092;3.37070736;
23541014;48.4;51.8;0;0;0;-77.5;44.42;9.56;0.44;44.61;3273;0.295;1.054;0.1279;51.2957;6.3603;626991;635549;46.3813;0;61;-1.924;6.794;23540947;1.0538;0.1279;51.2885;6.3603;0.9;428.205;7.22;35.59;1.664;3216.08;3259.98;1;23540947;0.0366295;0.0629595;0.107647;-0.0858302;-0.481121;0.998894;-29.5419;-2.21444;31.8813;23539999;-37.71097146;145.03607005;82.90881977;0.00000000;0.00000000;4.73950092;3.37070736;
23541097;48.7;51.8;0;0;0;-78.6;50.82;11.45;-0.36;50.67;3322;0.235;1.0543;0.1279;51.3102;6.3603;627021;635579;69.946;0;61;-2.01;7.095;23541014;1.054;0.1279;51.2957;6.3603;0.899;427.79;13.76;57.7;1.679;3216.18;3260.08;1;23541014;0.0729726;0.0455985;0.0829767;0.076222;-0.6423;1.02194;28.1835;-6.01124;14.0973;23540999;-37.71097684;145.03607566;82.97759828;0.00000000;0.00000000;4.74394741;3.36444646;
23541162;48.7;51.9;0;0;0;-78.3;36.05;7.16;-0.19;36.06;3287;0.239;1.0544;0.1279;51.316;6.3603;627040;635598;85.0672;0;61;-1.638;6.322;23541097;1.0543;0.1279;51.3102;6.3603;0.897;426.925;6.76;34.89;1.702;3216.34;3260.23;1;23541130;0.0194942;0.0518776;0.0557082;0.088093;-0.0366127;1.02919;3.60011;7.47537;14.9076;23540999;-37.71097684;145.03607566;82.97759828;0.00000000;0.00000000;4.74394741;3.36444646;
23541245;48.6;51.9;0;0;0;-79.8;41.55;8.53;0.33;41.58;3211;0.25;1.0546;0.1279;51.3263;6.3603;627069;635627;107.393;0;61;-1.678;6.537;23541163;1.0544;0.1279;51.316;6.3603;0.897;426.648;7.2;36.19;1.685;3216.44;3260.34;1;23541185;0.0131463;0.055581;0.0401065;-0.0462895;-0.117355;1.02325;6.74375;3.81095;15.7504;23540999;-37.71097684;145.03607566;82.97759828;0.00000000;0.00000000;4.74394741;3.36444646;
23541335;48.4;52;0;0;0;-79.5;52.87;11.93;0;52.92;3267;0.283;1.0549;0.1279;51.3403;6.3603;627099;635657;130.397;0;61;-2.169;7.118;23541245;1.0546;0.1279;51.3263;6.3603;0.896;426.09;8.6;42.49;1.646;3216.58;3260.48;1;23541247;0.0149318;0.0506947;0.0238661;0.378081;0.129696;1.01837;-4.42399;-5.28692;17.0714;23540999;-37.71097684;145.03607566;82.97759828;0.00000000;0.00000000;4.74394741;3.36444646;
23541397;48.3;52;0;0;0;-79.4;52.27;12.04;0.14;52.31;3376;0.295;1.0551;0.1279;51.3499;6.3603;627119;635677;146.489;0;61;-2.377;7.296;23541335;1.0549;0.1279;51.3403;6.3603;0.894;425.204;11.92;51.13;1.676;3216.74;3260.63;1;23541335;0.0189889;0.0483516;-0.0101587;-0.120757;0.0504943;1.0254;-15.8531;-7.43676;22.0662;23540999;-37.71097684;145.03607566;82.97759828;0.00000000;0.00000000;4.74394741;3.36444646;
23541464;47.5;52;0;0;0;-80.5;71.26;19.21;0.55;71.62;3467;0.399;1.0554;0.1279;51.3638;6.3603;627140;635698;163.024;0;61;-2.86;8.318;23541398;1.0551;0.1279;51.3499;6.3603;0.892;424.625;13.21;54.75;1.733;3216.84;3260.74;1;23541398;0.0360782;0.0522026;-0.0373758;-0.125618;-0.226777;1.02818;-2.64604;-12.4624;29.702;23540999;-37.71097684;145.03607566;82.97759828;0.00000000;0.00000000;4.74394741;3.36444646;
23541546;47.3;52.1;0;0;0;-82.4;100.55;31.69;-0.44;100.53;3820;0.395;1.0562;0.1279;51.401;6.3603;627175;635733;189.523;0;61;-3.678;9.771;23541464;1.0554;0.1279;51.3638;6.3603;0.89;423.603;29.83;97.22;1.778;3216.95;3260.85;1;23541464;0.0469949;0.0295554;-0.0641708;0.0453279;-0.0803339;1.0427;5.51459;-6.09471;22.3342;23540999;-37.71097684;145.03607566;82.97759828;0.00000000;0.00000000;4.74394741;3.36444646;
23541614;48.5;52.2;0;0;0;-82.4;68.74;20.49;-0.94;68.13;4226;0.275;1.0565;0.1279;51.4193;6.3603;627202;635760;210.905;0;61;-1.317;9.238;23541546;1.0562;0.1279;51.401;6.3603;0.884;420.775;30.74;92.6;1.965;3217.13;3261.03;1;23541546;0.0418784;0.0543237;-0.092515;-0.350677;-0.119027;1.07159;26.9806;-15.7014;8.77225;23540999;-37.71097684;145.03607566;82.97759828;0.00000000;0.00000000;4.74394741;3.36444646;
23541697;48.5;52.2;0;0;0;-83.1;31.28;7.16;0.01;31.3;4140;0.265;1.0567;0.1279;51.4281;6.3603;627240;635798;240.198;0;61;0.279;7.388;23541614;1.0565;0.1279;51.4193;6.3603;0.882;419.554;8.05;34.89;2.168;3217.27;3261.17;1;23541634;0.0090377;0.0539956;-0.12665;0.282774;-0.236829;1.02228;11.4782;20.4757;37.4151;23540999;-37.71097684;145.03607566;82.97759828;0.00000000;0.00000000;4.74394741;3.36444646;
23541763;48.2;52.3;0;0;0;-83.2;50.32;12.15;1.25;50.46;3848;0.321;1.0569;0.1279;51.4373;6.3603;627262;635820;257.443;0;61;-1.755;7.642;23541698;1.0567;0.1279;51.4281;6.3603;0.881;419.254;8.9;39.25;2.121;3217.46;3261.36;1;23541698;0.0270427;0.0302461;-0.168479;0.214258;-0.197705;1.00192;-26.6829;5.64513;37.0201;23540999;-37.71097684;145.03607566;82.97759828;0.00000000;0.00000000;4.74394741;3.36444646;
23541848;47.6;52.3;0;0;0;-84.2;74.1;20.08;0.03;74.28;3635;0.37;1.0574;0.1279;51.4602;6.3603;627294;635852;282.386;0;61;-3.115;8.406;23541763;1.0569;0.1279;51.4373;6.3603;0.88;418.733;15.63;61.53;1.97;3217.57;3261.47;1;23541763;0.0800054;0.00980118;-0.200136;0.196358;-0.565053;1.0102;-16.9696;-7.43797;22.5122;23540999;-37.71097684;145.03607566;82.97759828;0.00000000;0.00000000;4.74394741;3.36444646;
23541913;47.3;52.4;0;0;0;-85.1;90.1;27.24;0.4;90.16;3738;0.426;1.0578;0.1279;51.4814;6.3603;627316;635874;300.078;0;61;-3.815;9.364;23541848;1.0574;0.1279;51.4602;6.3603;0.877;417.149;25.93;90.41;1.862;3217.74;3261.63;1;23541848;0.129863;-0.0117681;-0.217432;-0.223686;-0.104033;1.05136;-21.2365;-24.7189;3.00144;23540999;-37.71097684;145.03607566;82.97759828;0.00000000;0.00000000;4.74394741;3.36444646;
23541998;48.2;52.5;0;0;0;-83.8;92.86;31.89;-1.04;92.46;4668;0.318;1.0587;0.1279;51.5206;6.3603;627360;635918;334.003;0;61;-3.3;10.649;23541913;1.0578;0.1279;51.4814;6.3603;0.874;415.653;31.42;94.15;1.917;3217.85;3261.75;1;23541914;0.162221;-0.013763;-0.21188;-0.615679;-0.827986;1.07681;-10.4908;-37.3838;-30.5839;23540999;-37.71097684;145.03607566;82.97759828;0.00000000;0.00000000;4.74394741;3.36444646;
23542065;48.3;52.5;0;0;0;-83.4;31.8;8.47;-0.01;31.86;4856;0.334;1.0588;0.1279;51.5276;6.3603;627391;635949;357.506;0;61;0.117;8.599;23541998;1.0587;0.1279;51.5206;6.3603;0.867;412.709;10.63;39.24;2.396;3218.08;3261.98;1;23541998;0.115179;0.0103368;-0.14371;0.422278;0.740793;1.0597;2.85973;34.6747;-21.6944;23541999;-37.71098369;145.03609398;82.80897862;1.11065164;0.00000000;4.74175229;3.36753950;
23542147;48.7;52.7;0;0;0;-83.5;40.91;10.71;-0.15;40.78;4507;0.277;1.0591;0.1279;51.5412;6.3603;627430;635988;28.6314;0;61;-0.096;8.14;23542065;1.0588;0.1279;51.5276;6.3603;0.867;412.513;13.46;46.99;2.49;3218.23;3262.13;1;23542065;0.0971776;-0.0198555;-0.132008;0.975685;-0.188836;1.00295;26.9505;17.4908;-9.58458;23541999;-37.71098369;145.03609398;82.80897862;1.11065164;0.00000000;4.74175229;3.36753950;
23542215;48.6;52.7;0;0;0;-83.3;37.43;8.75;0.05;37.48;4226;0.254;1.0592;0.1279;51.548;6.3603;627455;636013;47.6797;0;61;0.114;7.497;23542147;1.0591;0.1279;51.5412;6.3603;0.866;412.001;7.07;29.3;2.311;3218.44;3262.34;1;23542148;0.070563;-0.011463;-0.133682;0.57245;-0.544697;0.951059;-24.9257;18.6969;18.1879;23541999;-37.71098369;145.03609398;82.80897862;1.11065164;0.00000000;4.74175229;3.36753950;
23542296;48.7;52.8;0;0;0;-83.7;29.27;6.06;0.55;29.22;3796;0.252;1.0594;0.1279;51.5555;6.3603;627488;636048;73.5475;0;61;-1.061;6.636;23542215;1.0592;0.1279;51.548;6.3603;0.866;411.832;7;32.65;2.165;3218.56;3262.46;1;23542215;0.0999401;-0.0095785;-0.149932;0.129766;-0.258875;0.948788;14.8503;24.8712;14.6507;23541999;-37.71098369;145.03609398;82.80897862;1.11065164;0.00000000;4.74175229;3.36753950;
23542386;48.3;52.9;0;0;0;-82.6;34.89;7.43;0.1;35.01;3557;0.295;1.0596;0.1279;51.5639;6.3603;627519;636079;97.8992;0;61;-1.604;6.609;23542296;1.0594;0.1279;51.5555;6.3603;0.866;411.873;6.35;31.41;1.945;3218.73;3262.64;1;23542297;0.106584;-0.00803011;-0.14512;0.0410543;0.289478;0.94033;-23.1207;9.25646;-11.5759;23541999;-37.71098369;145.03609398;82.80897862;1.11065164;0.00000000;4.74175229;3.36753950;
23542444;48.4;52.9;0;0;0;-83.1;50.77;11.85;-0.04;50.7;3558;0.298;1.0598;0.1279;51.5737;6.3603;627540;636100;114.516;0;61;-2.397;7.365;23542416;1.0597;0.1279;51.5695;6.3603;0.865;411.552;10.48;50.6;1.805;3218.94;3262.85;1;23542416;0.19353;-0.0130706;-0.124245;-0.454423;-0.465507;0.975935;-26.2991;-4.36314;-30.7909;23541999;-37.71098369;145.03609398;82.80897862;1.11065164;0.00000000;4.74175229;3.36753950;
23542535;48.3;53;0;0;0;-83;46.09;11.13;0.26;46.06;3851;0.313;1.06;0.1279;51.587;6.3603;627576;636136;142.302;0;61;-2.335;7.708;23542515;1.06;0.1279;51.5827;6.3603;0.864;411.098;10.39;44.33;1.923;3219.11;3263.02;1;23542515;0.201311;-0.0114969;-0.0602629;-0.136861;-0.357949;0.995123;35.8026;-9.47806;-57.6347;23541999;-37.71098369;145.03609398;82.80897862;1.11065164;0.00000000;4.74175229;3.36753950;
23542598;48.5;53.1;0;0;0;-83.4;36.69;8.46;-1.4;36.46;4012;0.278;1.0602;0.1279;51.5943;6.3603;627600;636160;161.067;0;61;-0.347;7.464;23542515;1.06;0.1279;51.5827;6.3603;0.864;411.098;10.39;44.33;1.923;3219.11;3263.02;1;23542515;0.201311;-0.0114969;-0.0602629;-0.136861;-0.357949;0.995123;35.8026;-9.47806;-57.6347;23541999;-37.71098369;145.03609398;82.80897862;1.11065164;0.00000000;4.74175229;3.36753950;
23542664;48.3;53.1;0;0;0;-83.6;41.98;10.07;0.1;42.1;4019;0.283;1.0604;0.1279;51.6021;6.3603;627625;636185;179.939;0;61;0;7.652;23542599;1.0602;0.1279;51.5943;6.3603;0.863;410.799;8.96;37.93;2.057;3219.31;3263.22;1;23542599;0.124978;-0.0172516;0.019712;0.0713126;0.145362;0.970566;14.3865;21.4682;-35.7059;23541999;-37.71098369;145.03609398;82.80897862;1.11065164;0.00000000;4.74175229;3.36753950;
23542853;48.2;53.2;0;0;0;-84;72.41;20.7;0.06;72.41;4047;0.293;1.0609;0.1279;51.6266;6.3603;627661;636221;208.02;0;61;-1.212;8.884;23542664;1.0604;0.1279;51.6021;6.3603;0.863;410.582;12.1;49.91;2.06;3219.43;3263.34;1;23542664;0.116241;-0.00902589;0.0603686;0.0188102;-0.0627663;0.972763;7.70138;-3.72372;-41.4653;23541999;-37.71098369;145.03609398;82.80897862;1.11065164;0.00000000;4.74175229;3.36753950;
23543045;48.3;53.4;0;0;0;-79.6;49.35;13.53;-0.01;49.32;4696;0.302;1.062;0.1279;51.6812;6.3603;627797;636357;314.649;0;61;-0.368;8.685;23542853;1.0609;0.1279;51.6266;6.3603;0.86;409.124;12;50.55;2.076;3219.62;3263.53;1;23542862;0.0621494;-0.000448312;0.10835;-0.588914;-0.0357935;1.02177;33.8501;4.52076;-20.7789;23542999;-37.71099952;145.03610583;83.14063088;1.52100108;0.00000000;4.74364282;3.36487590;
23543165;48.3;53.4;0;0;0;-76.1;40.97;11.26;0.04;40.98;4868;0.324;1.0624;0.1279;51.6993;6.3603;627856;636416;0.216674;0;61;-0.158;8.796;23543045;1.062;0.1279;51.6812;6.3603;0.855;406.842;9.7;38.98;2.409;3220.32;3264.23;1;23543047;0.000378721;0.0246832;0.219576;-0.351647;0.16735;1.01093;-18.3693;2.02724;-1.64178;23542999;-37.71099952;145.03610583;83.14063088;1.52100108;0.00000000;4.74364282;3.36487590;
23543253;48.3;53.5;0;0;0;-77.8;36.95;9.88;-0.03;36.93;4862;0.33;1.0626;0.1279;51.7114;6.3603;627900;636460;34.2683;0;61;-0.006;8.583;23543165;1.0624;0.1279;51.6993;6.3603;0.854;406.314;11.27;40.69;2.498;3220.62;3264.53;1;23543165;-0.00874037;0.0281461;0.207042;-0.350174;-0.0636382;1.00123;60.2805;13.0077;0.529698;23542999;-37.71099952;145.03610583;83.14063088;1.52100108;0.00000000;4.74364282;3.36487590;
23543347;48.2;53.6;0;0;0;-78;40.29;11.04;0.12;40.36;4881;0.34;1.0629;0.1279;51.7244;6.3603;627943;636503;68.4138;0;61;-0.138;8.791;23543254;1.0626;0.1279;51.7114;6.3603;0.853;406.084;11.77;40.92;2.496;3220.84;3264.75;1;23543254;-0.071136;0.0288446;0.188297;0.0170164;0.193596;0.999884;-6.09985;19.9534;27.4598;23542999;-37.71099952;145.03610583;83.14063088;1.52100108;0.00000000;4.74364282;3.36487590;
